header:
  stamp:
    sec: 289
    nanosec: 826000000
  frame_id: base_link
pose:
  pose:
    position:
      x: -318.2297899883775
      y: -1852.0344515647869
      z: 0.0
    orientation:
      x: 0.0
      y: 0.0
      z: -0.7022151006109831
      w: 0.7119648533979096
  covariance:
  - 0.001
  - 0.0
  - 0.0
  - 0.0
  - 0.0
  - 0.0
  - 0.0
  - 0.001
  - 0.0
  - 0.0
  - 0.0
  - 0.0
  - 0.0
  - 0.0
  - 0.001
  - 0.0
  - 0.0
  - 0.0
  - 0.0
  - 0.0
  - 0.0
  - 0.0001
  - 0.0
  - 0.0
  - 0.0
  - 0.0
  - 0.0
  - 0.0
  - 0.0001
  - 0.0
  - 0.0
  - 0.0
  - 0.0
  - 0.0
  - 0.0
  - 0.0001
---
header:
  stamp:
    sec: 289
    nanosec: 826000000
  frame_id: base_link
pose:
  pose:
    position:
      x: -318.17520775806827
      y: -1852.027524461495
      z: 0.0
    orientation:
      x: 0.0
      y: 0.0
      z: -0.7011865989827643
      w: 0.7129778070928885
  covariance:
  - 0.001
  - 0.0
  - 0.0
  - 0.0
  - 0.0
  - 0.0
  - 0.0
  - 0.001
  - 0.0
  - 0.0
  - 0.0
  - 0.0
  - 0.0
  - 0.0
  - 0.001
  - 0.0
  - 0.0
  - 0.0
  - 0.0
  - 0.0
  - 0.0
  - 0.0001
  - 0.0
  - 0.0
  - 0.0
  - 0.0
  - 0.0
  - 0.0
  - 0.0001
  - 0.0
  - 0.0
  - 0.0
  - 0.0
  - 0.0
  - 0.0
  - 0.0001
---
header:
  stamp:
    sec: 289
    nanosec: 826999999
  frame_id: base_link
pose:
  pose:
    position:
      x: -318.17520775806827
      y: -1852.027524461495
      z: 0.0
    orientation:
      x: 0.0
      y: 0.0
      z: -0.7011865989827643
      w: 0.7129778070928885
  covariance:
  - 0.001
  - 0.0
  - 0.0
  - 0.0
  - 0.0
  - 0.0
  - 0.0
  - 0.001
  - 0.0
  - 0.0
  - 0.0
  - 0.0
  - 0.0
  - 0.0
  - 0.001
  - 0.0
  - 0.0
  - 0.0
  - 0.0
  - 0.0
  - 0.0
  - 0.0001
  - 0.0
  - 0.0
  - 0.0
  - 0.0
  - 0.0
  - 0.0
  - 0.0001
  - 0.0
  - 0.0
  - 0.0
  - 0.0
  - 0.0
  - 0.0
  - 0.0001
---
header:
  stamp:
    sec: 289
    nanosec: 826999999
  frame_id: base_link
pose:
  pose:
    position:
      x: -318.17520775806827
      y: -1852.027524461495
      z: 0.0
    orientation:
      x: 0.0
      y: 0.0
      z: -0.7011865989827643
      w: 0.7129778070928885
  covariance:
  - 0.001
  - 0.0
  - 0.0
  - 0.0
  - 0.0
  - 0.0
  - 0.0
  - 0.001
  - 0.0
  - 0.0
  - 0.0
  - 0.0
  - 0.0
  - 0.0
  - 0.001
  - 0.0
  - 0.0
  - 0.0
  - 0.0
  - 0.0
  - 0.0
  - 0.0001
  - 0.0
  - 0.0
  - 0.0
  - 0.0
  - 0.0
  - 0.0
  - 0.0001
  - 0.0
  - 0.0
  - 0.0
  - 0.0
  - 0.0
  - 0.0
  - 0.0001
---
header:
  stamp:
    sec: 289
    nanosec: 828000000
  frame_id: base_link
pose:
  pose:
    position:
      x: -318.17520775806827
      y: -1852.027524461495
      z: 0.0
    orientation:
      x: 0.0
      y: 0.0
      z: -0.7011865989827643
      w: 0.7129778070928885
  covariance:
  - 0.001
  - 0.0
  - 0.0
  - 0.0
  - 0.0
  - 0.0
  - 0.0
  - 0.001
  - 0.0
  - 0.0
  - 0.0
  - 0.0
  - 0.0
  - 0.0
  - 0.001
  - 0.0
  - 0.0
  - 0.0
  - 0.0
  - 0.0
  - 0.0
  - 0.0001
  - 0.0
  - 0.0
  - 0.0
  - 0.0
  - 0.0
  - 0.0
  - 0.0001
  - 0.0
  - 0.0
  - 0.0
  - 0.0
  - 0.0
  - 0.0
  - 0.0001
---
header:
  stamp:
    sec: 289
    nanosec: 828000000
  frame_id: base_link
pose:
  pose:
    position:
      x: -318.2462039228319
      y: -1852.0274557992832
      z: 0.0
    orientation:
      x: 0.0
      y: 0.0
      z: -0.7017439942653674
      w: 0.7124292010526295
  covariance:
  - 0.001
  - 0.0
  - 0.0
  - 0.0
  - 0.0
  - 0.0
  - 0.0
  - 0.001
  - 0.0
  - 0.0
  - 0.0
  - 0.0
  - 0.0
  - 0.0
  - 0.001
  - 0.0
  - 0.0
  - 0.0
  - 0.0
  - 0.0
  - 0.0
  - 0.0001
  - 0.0
  - 0.0
  - 0.0
  - 0.0
  - 0.0
  - 0.0
  - 0.0001
  - 0.0
  - 0.0
  - 0.0
  - 0.0
  - 0.0
  - 0.0
  - 0.0001
---
header:
  stamp:
    sec: 289
    nanosec: 829000000
  frame_id: base_link
pose:
  pose:
    position:
      x: -318.2462039228319
      y: -1852.0274557992832
      z: 0.0
    orientation:
      x: 0.0
      y: 0.0
      z: -0.7017439942653674
      w: 0.7124292010526295
  covariance:
  - 0.001
  - 0.0
  - 0.0
  - 0.0
  - 0.0
  - 0.0
  - 0.0
  - 0.001
  - 0.0
  - 0.0
  - 0.0
  - 0.0
  - 0.0
  - 0.0
  - 0.001
  - 0.0
  - 0.0
  - 0.0
  - 0.0
  - 0.0
  - 0.0
  - 0.0001
  - 0.0
  - 0.0
  - 0.0
  - 0.0
  - 0.0
  - 0.0
  - 0.0001
  - 0.0
  - 0.0
  - 0.0
  - 0.0
  - 0.0
  - 0.0
  - 0.0001
---
header:
  stamp:
    sec: 289
    nanosec: 829000000
  frame_id: base_link
pose:
  pose:
    position:
      x: -318.2462039228319
      y: -1852.0274557992832
      z: 0.0
    orientation:
      x: 0.0
      y: 0.0
      z: -0.7017439942653674
      w: 0.7124292010526295
  covariance:
  - 0.001
  - 0.0
  - 0.0
  - 0.0
  - 0.0
  - 0.0
  - 0.0
  - 0.001
  - 0.0
  - 0.0
  - 0.0
  - 0.0
  - 0.0
  - 0.0
  - 0.001
  - 0.0
  - 0.0
  - 0.0
  - 0.0
  - 0.0
  - 0.0
  - 0.0001
  - 0.0
  - 0.0
  - 0.0
  - 0.0
  - 0.0
  - 0.0
  - 0.0001
  - 0.0
  - 0.0
  - 0.0
  - 0.0
  - 0.0
  - 0.0
  - 0.0001
---
header:
  stamp:
    sec: 289
    nanosec: 829999999
  frame_id: base_link
pose:
  pose:
    position:
      x: -318.2462039228319
      y: -1852.0274557992832
      z: 0.0
    orientation:
      x: 0.0
      y: 0.0
      z: -0.7017439942653674
      w: 0.7124292010526295
  covariance:
  - 0.001
  - 0.0
  - 0.0
  - 0.0
  - 0.0
  - 0.0
  - 0.0
  - 0.001
  - 0.0
  - 0.0
  - 0.0
  - 0.0
  - 0.0
  - 0.0
  - 0.001
  - 0.0
  - 0.0
  - 0.0
  - 0.0
  - 0.0
  - 0.0
  - 0.0001
  - 0.0
  - 0.0
  - 0.0
  - 0.0
  - 0.0
  - 0.0
  - 0.0001
  - 0.0
  - 0.0
  - 0.0
  - 0.0
  - 0.0
  - 0.0
  - 0.0001
---
header:
  stamp:
    sec: 289
    nanosec: 829999999
  frame_id: base_link
pose:
  pose:
    position:
      x: -318.191460194911
      y: -1852.0868309830162
      z: 0.0
    orientation:
      x: 0.0
      y: 0.0
      z: -0.6983369589411432
      w: 0.7157691609568241
  covariance:
  - 0.001
  - 0.0
  - 0.0
  - 0.0
  - 0.0
  - 0.0
  - 0.0
  - 0.001
  - 0.0
  - 0.0
  - 0.0
  - 0.0
  - 0.0
  - 0.0
  - 0.001
  - 0.0
  - 0.0
  - 0.0
  - 0.0
  - 0.0
  - 0.0
  - 0.0001
  - 0.0
  - 0.0
  - 0.0
  - 0.0
  - 0.0
  - 0.0
  - 0.0001
  - 0.0
  - 0.0
  - 0.0
  - 0.0
  - 0.0
  - 0.0
  - 0.0001
---
header:
  stamp:
    sec: 289
    nanosec: 830999999
  frame_id: base_link
pose:
  pose:
    position:
      x: -318.191460194911
      y: -1852.0868309830162
      z: 0.0
    orientation:
      x: 0.0
      y: 0.0
      z: -0.6983369589411432
      w: 0.7157691609568241
  covariance:
  - 0.001
  - 0.0
  - 0.0
  - 0.0
  - 0.0
  - 0.0
  - 0.0
  - 0.001
  - 0.0
  - 0.0
  - 0.0
  - 0.0
  - 0.0
  - 0.0
  - 0.001
  - 0.0
  - 0.0
  - 0.0
  - 0.0
  - 0.0
  - 0.0
  - 0.0001
  - 0.0
  - 0.0
  - 0.0
  - 0.0
  - 0.0
  - 0.0
  - 0.0001
  - 0.0
  - 0.0
  - 0.0
  - 0.0
  - 0.0
  - 0.0
  - 0.0001
---
header:
  stamp:
    sec: 289
    nanosec: 830999999
  frame_id: base_link
pose:
  pose:
    position:
      x: -318.191460194911
      y: -1852.0868309830162
      z: 0.0
    orientation:
      x: 0.0
      y: 0.0
      z: -0.6983369589411432
      w: 0.7157691609568241
  covariance:
  - 0.001
  - 0.0
  - 0.0
  - 0.0
  - 0.0
  - 0.0
  - 0.0
  - 0.001
  - 0.0
  - 0.0
  - 0.0
  - 0.0
  - 0.0
  - 0.0
  - 0.001
  - 0.0
  - 0.0
  - 0.0
  - 0.0
  - 0.0
  - 0.0
  - 0.0001
  - 0.0
  - 0.0
  - 0.0
  - 0.0
  - 0.0
  - 0.0
  - 0.0001
  - 0.0
  - 0.0
  - 0.0
  - 0.0
  - 0.0
  - 0.0
  - 0.0001
---
header:
  stamp:
    sec: 289
    nanosec: 831999999
  frame_id: base_link
pose:
  pose:
    position:
      x: -318.191460194911
      y: -1852.0868309830162
      z: 0.0
    orientation:
      x: 0.0
      y: 0.0
      z: -0.6983369589411432
      w: 0.7157691609568241
  covariance:
  - 0.001
  - 0.0
  - 0.0
  - 0.0
  - 0.0
  - 0.0
  - 0.0
  - 0.001
  - 0.0
  - 0.0
  - 0.0
  - 0.0
  - 0.0
  - 0.0
  - 0.001
  - 0.0
  - 0.0
  - 0.0
  - 0.0
  - 0.0
  - 0.0
  - 0.0001
  - 0.0
  - 0.0
  - 0.0
  - 0.0
  - 0.0
  - 0.0
  - 0.0001
  - 0.0
  - 0.0
  - 0.0
  - 0.0
  - 0.0
  - 0.0
  - 0.0001
---
header:
  stamp:
    sec: 289
    nanosec: 831999999
  frame_id: base_link
pose:
  pose:
    position:
      x: -318.26266990123725
      y: -1852.0409962172387
      z: 0.0
    orientation:
      x: 0.0
      y: 0.0
      z: -0.7015684954273594
      w: 0.712602025133097
  covariance:
  - 0.001
  - 0.0
  - 0.0
  - 0.0
  - 0.0
  - 0.0
  - 0.0
  - 0.001
  - 0.0
  - 0.0
  - 0.0
  - 0.0
  - 0.0
  - 0.0
  - 0.001
  - 0.0
  - 0.0
  - 0.0
  - 0.0
  - 0.0
  - 0.0
  - 0.0001
  - 0.0
  - 0.0
  - 0.0
  - 0.0
  - 0.0
  - 0.0
  - 0.0001
  - 0.0
  - 0.0
  - 0.0
  - 0.0
  - 0.0
  - 0.0
  - 0.0001
---
header:
  stamp:
    sec: 289
    nanosec: 832999999
  frame_id: base_link
pose:
  pose:
    position:
      x: -318.26266990123725
      y: -1852.0409962172387
      z: 0.0
    orientation:
      x: 0.0
      y: 0.0
      z: -0.7015684954273594
      w: 0.712602025133097
  covariance:
  - 0.001
  - 0.0
  - 0.0
  - 0.0
  - 0.0
  - 0.0
  - 0.0
  - 0.001
  - 0.0
  - 0.0
  - 0.0
  - 0.0
  - 0.0
  - 0.0
  - 0.001
  - 0.0
  - 0.0
  - 0.0
  - 0.0
  - 0.0
  - 0.0
  - 0.0001
  - 0.0
  - 0.0
  - 0.0
  - 0.0
  - 0.0
  - 0.0
  - 0.0001
  - 0.0
  - 0.0
  - 0.0
  - 0.0
  - 0.0
  - 0.0
  - 0.0001
---
header:
  stamp:
    sec: 289
    nanosec: 832999999
  frame_id: base_link
pose:
  pose:
    position:
      x: -318.26266990123725
      y: -1852.0409962172387
      z: 0.0
    orientation:
      x: 0.0
      y: 0.0
      z: -0.7015684954273594
      w: 0.712602025133097
  covariance:
  - 0.001
  - 0.0
  - 0.0
  - 0.0
  - 0.0
  - 0.0
  - 0.0
  - 0.001
  - 0.0
  - 0.0
  - 0.0
  - 0.0
  - 0.0
  - 0.0
  - 0.001
  - 0.0
  - 0.0
  - 0.0
  - 0.0
  - 0.0
  - 0.0
  - 0.0001
  - 0.0
  - 0.0
  - 0.0
  - 0.0
  - 0.0
  - 0.0
  - 0.0001
  - 0.0
  - 0.0
  - 0.0
  - 0.0
  - 0.0
  - 0.0
  - 0.0001
---
header:
  stamp:
    sec: 289
    nanosec: 834000000
  frame_id: base_link
pose:
  pose:
    position:
      x: -318.26266990123725
      y: -1852.0409962172387
      z: 0.0
    orientation:
      x: 0.0
      y: 0.0
      z: -0.7015684954273594
      w: 0.712602025133097
  covariance:
  - 0.001
  - 0.0
  - 0.0
  - 0.0
  - 0.0
  - 0.0
  - 0.0
  - 0.001
  - 0.0
  - 0.0
  - 0.0
  - 0.0
  - 0.0
  - 0.0
  - 0.001
  - 0.0
  - 0.0
  - 0.0
  - 0.0
  - 0.0
  - 0.0
  - 0.0001
  - 0.0
  - 0.0
  - 0.0
  - 0.0
  - 0.0
  - 0.0
  - 0.0001
  - 0.0
  - 0.0
  - 0.0
  - 0.0
  - 0.0
  - 0.0
  - 0.0001
---
header:
  stamp:
    sec: 289
    nanosec: 834000000
  frame_id: base_link
pose:
  pose:
    position:
      x: -318.2323163603047
      y: -1852.0728531473048
      z: 0.0
    orientation:
      x: 0.0
      y: 0.0
      z: -0.7025662906914933
      w: 0.7116183016083806
  covariance:
  - 0.001
  - 0.0
  - 0.0
  - 0.0
  - 0.0
  - 0.0
  - 0.0
  - 0.001
  - 0.0
  - 0.0
  - 0.0
  - 0.0
  - 0.0
  - 0.0
  - 0.001
  - 0.0
  - 0.0
  - 0.0
  - 0.0
  - 0.0
  - 0.0
  - 0.0001
  - 0.0
  - 0.0
  - 0.0
  - 0.0
  - 0.0
  - 0.0
  - 0.0001
  - 0.0
  - 0.0
  - 0.0
  - 0.0
  - 0.0
  - 0.0
  - 0.0001
---
header:
  stamp:
    sec: 289
    nanosec: 834999999
  frame_id: base_link
pose:
  pose:
    position:
      x: -318.2323163603047
      y: -1852.0728531473048
      z: 0.0
    orientation:
      x: 0.0
      y: 0.0
      z: -0.7025662906914933
      w: 0.7116183016083806
  covariance:
  - 0.001
  - 0.0
  - 0.0
  - 0.0
  - 0.0
  - 0.0
  - 0.0
  - 0.001
  - 0.0
  - 0.0
  - 0.0
  - 0.0
  - 0.0
  - 0.0
  - 0.001
  - 0.0
  - 0.0
  - 0.0
  - 0.0
  - 0.0
  - 0.0
  - 0.0001
  - 0.0
  - 0.0
  - 0.0
  - 0.0
  - 0.0
  - 0.0
  - 0.0001
  - 0.0
  - 0.0
  - 0.0
  - 0.0
  - 0.0
  - 0.0
  - 0.0001
---
header:
  stamp:
    sec: 289
    nanosec: 834999999
  frame_id: base_link
pose:
  pose:
    position:
      x: -318.2323163603047
      y: -1852.0728531473048
      z: 0.0
    orientation:
      x: 0.0
      y: 0.0
      z: -0.7025662906914933
      w: 0.7116183016083806
  covariance:
  - 0.001
  - 0.0
  - 0.0
  - 0.0
  - 0.0
  - 0.0
  - 0.0
  - 0.001
  - 0.0
  - 0.0
  - 0.0
  - 0.0
  - 0.0
  - 0.0
  - 0.001
  - 0.0
  - 0.0
  - 0.0
  - 0.0
  - 0.0
  - 0.0
  - 0.0001
  - 0.0
  - 0.0
  - 0.0
  - 0.0
  - 0.0
  - 0.0
  - 0.0001
  - 0.0
  - 0.0
  - 0.0
  - 0.0
  - 0.0
  - 0.0
  - 0.0001
---
header:
  stamp:
    sec: 289
    nanosec: 836000000
  frame_id: base_link
pose:
  pose:
    position:
      x: -318.2323163603047
      y: -1852.0728531473048
      z: 0.0
    orientation:
      x: 0.0
      y: 0.0
      z: -0.7025662906914933
      w: 0.7116183016083806
  covariance:
  - 0.001
  - 0.0
  - 0.0
  - 0.0
  - 0.0
  - 0.0
  - 0.0
  - 0.001
  - 0.0
  - 0.0
  - 0.0
  - 0.0
  - 0.0
  - 0.0
  - 0.001
  - 0.0
  - 0.0
  - 0.0
  - 0.0
  - 0.0
  - 0.0
  - 0.0001
  - 0.0
  - 0.0
  - 0.0
  - 0.0
  - 0.0
  - 0.0
  - 0.0001
  - 0.0
  - 0.0
  - 0.0
  - 0.0
  - 0.0
  - 0.0
  - 0.0001
---
header:
  stamp:
    sec: 289
    nanosec: 836000000
  frame_id: base_link
pose:
  pose:
    position:
      x: -318.258206681499
      y: -1852.043386476946
      z: 0.0
    orientation:
      x: 0.0
      y: 0.0
      z: -0.704401002185397
      w: 0.7098022457841396
  covariance:
  - 0.001
  - 0.0
  - 0.0
  - 0.0
  - 0.0
  - 0.0
  - 0.0
  - 0.001
  - 0.0
  - 0.0
  - 0.0
  - 0.0
  - 0.0
  - 0.0
  - 0.001
  - 0.0
  - 0.0
  - 0.0
  - 0.0
  - 0.0
  - 0.0
  - 0.0001
  - 0.0
  - 0.0
  - 0.0
  - 0.0
  - 0.0
  - 0.0
  - 0.0001
  - 0.0
  - 0.0
  - 0.0
  - 0.0
  - 0.0
  - 0.0
  - 0.0001
---
header:
  stamp:
    sec: 289
    nanosec: 836999999
  frame_id: base_link
pose:
  pose:
    position:
      x: -318.258206681499
      y: -1852.043386476946
      z: 0.0
    orientation:
      x: 0.0
      y: 0.0
      z: -0.704401002185397
      w: 0.7098022457841396
  covariance:
  - 0.001
  - 0.0
  - 0.0
  - 0.0
  - 0.0
  - 0.0
  - 0.0
  - 0.001
  - 0.0
  - 0.0
  - 0.0
  - 0.0
  - 0.0
  - 0.0
  - 0.001
  - 0.0
  - 0.0
  - 0.0
  - 0.0
  - 0.0
  - 0.0
  - 0.0001
  - 0.0
  - 0.0
  - 0.0
  - 0.0
  - 0.0
  - 0.0
  - 0.0001
  - 0.0
  - 0.0
  - 0.0
  - 0.0
  - 0.0
  - 0.0
  - 0.0001
---
header:
  stamp:
    sec: 289
    nanosec: 836999999
  frame_id: base_link
pose:
  pose:
    position:
      x: -318.258206681499
      y: -1852.043386476946
      z: 0.0
    orientation:
      x: 0.0
      y: 0.0
      z: -0.704401002185397
      w: 0.7098022457841396
  covariance:
  - 0.001
  - 0.0
  - 0.0
  - 0.0
  - 0.0
  - 0.0
  - 0.0
  - 0.001
  - 0.0
  - 0.0
  - 0.0
  - 0.0
  - 0.0
  - 0.0
  - 0.001
  - 0.0
  - 0.0
  - 0.0
  - 0.0
  - 0.0
  - 0.0
  - 0.0001
  - 0.0
  - 0.0
  - 0.0
  - 0.0
  - 0.0
  - 0.0
  - 0.0001
  - 0.0
  - 0.0
  - 0.0
  - 0.0
  - 0.0
  - 0.0
  - 0.0001
---
header:
  stamp:
    sec: 289
    nanosec: 838000000
  frame_id: base_link
pose:
  pose:
    position:
      x: -318.258206681499
      y: -1852.043386476946
      z: 0.0
    orientation:
      x: 0.0
      y: 0.0
      z: -0.704401002185397
      w: 0.7098022457841396
  covariance:
  - 0.001
  - 0.0
  - 0.0
  - 0.0
  - 0.0
  - 0.0
  - 0.0
  - 0.001
  - 0.0
  - 0.0
  - 0.0
  - 0.0
  - 0.0
  - 0.0
  - 0.001
  - 0.0
  - 0.0
  - 0.0
  - 0.0
  - 0.0
  - 0.0
  - 0.0001
  - 0.0
  - 0.0
  - 0.0
  - 0.0
  - 0.0
  - 0.0
  - 0.0001
  - 0.0
  - 0.0
  - 0.0
  - 0.0
  - 0.0
  - 0.0
  - 0.0001
---
header:
  stamp:
    sec: 289
    nanosec: 838000000
  frame_id: base_link
pose:
  pose:
    position:
      x: -318.2412234960015
      y: -1852.0354030195035
      z: 0.0
    orientation:
      x: 0.0
      y: 0.0
      z: -0.7015982353790576
      w: 0.7125727444359575
  covariance:
  - 0.001
  - 0.0
  - 0.0
  - 0.0
  - 0.0
  - 0.0
  - 0.0
  - 0.001
  - 0.0
  - 0.0
  - 0.0
  - 0.0
  - 0.0
  - 0.0
  - 0.001
  - 0.0
  - 0.0
  - 0.0
  - 0.0
  - 0.0
  - 0.0
  - 0.0001
  - 0.0
  - 0.0
  - 0.0
  - 0.0
  - 0.0
  - 0.0
  - 0.0001
  - 0.0
  - 0.0
  - 0.0
  - 0.0
  - 0.0
  - 0.0
  - 0.0001
---
header:
  stamp:
    sec: 289
    nanosec: 838999999
  frame_id: base_link
pose:
  pose:
    position:
      x: -318.2412234960015
      y: -1852.0354030195035
      z: 0.0
    orientation:
      x: 0.0
      y: 0.0
      z: -0.7015982353790576
      w: 0.7125727444359575
  covariance:
  - 0.001
  - 0.0
  - 0.0
  - 0.0
  - 0.0
  - 0.0
  - 0.0
  - 0.001
  - 0.0
  - 0.0
  - 0.0
  - 0.0
  - 0.0
  - 0.0
  - 0.001
  - 0.0
  - 0.0
  - 0.0
  - 0.0
  - 0.0
  - 0.0
  - 0.0001
  - 0.0
  - 0.0
  - 0.0
  - 0.0
  - 0.0
  - 0.0
  - 0.0001
  - 0.0
  - 0.0
  - 0.0
  - 0.0
  - 0.0
  - 0.0
  - 0.0001
---
header:
  stamp:
    sec: 289
    nanosec: 838999999
  frame_id: base_link
pose:
  pose:
    position:
      x: -318.2412234960015
      y: -1852.0354030195035
      z: 0.0
    orientation:
      x: 0.0
      y: 0.0
      z: -0.7015982353790576
      w: 0.7125727444359575
  covariance:
  - 0.001
  - 0.0
  - 0.0
  - 0.0
  - 0.0
  - 0.0
  - 0.0
  - 0.001
  - 0.0
  - 0.0
  - 0.0
  - 0.0
  - 0.0
  - 0.0
  - 0.001
  - 0.0
  - 0.0
  - 0.0
  - 0.0
  - 0.0
  - 0.0
  - 0.0001
  - 0.0
  - 0.0
  - 0.0
  - 0.0
  - 0.0
  - 0.0
  - 0.0001
  - 0.0
  - 0.0
  - 0.0
  - 0.0
  - 0.0
  - 0.0
  - 0.0001
---
header:
  stamp:
    sec: 289
    nanosec: 840000000
  frame_id: base_link
pose:
  pose:
    position:
      x: -318.2412234960015
      y: -1852.0354030195035
      z: 0.0
    orientation:
      x: 0.0
      y: 0.0
      z: -0.7015982353790576
      w: 0.7125727444359575
  covariance:
  - 0.001
  - 0.0
  - 0.0
  - 0.0
  - 0.0
  - 0.0
  - 0.0
  - 0.001
  - 0.0
  - 0.0
  - 0.0
  - 0.0
  - 0.0
  - 0.0
  - 0.001
  - 0.0
  - 0.0
  - 0.0
  - 0.0
  - 0.0
  - 0.0
  - 0.0001
  - 0.0
  - 0.0
  - 0.0
  - 0.0
  - 0.0
  - 0.0
  - 0.0001
  - 0.0
  - 0.0
  - 0.0
  - 0.0
  - 0.0
  - 0.0
  - 0.0001
---
header:
  stamp:
    sec: 289
    nanosec: 840000000
  frame_id: base_link
pose:
  pose:
    position:
      x: -318.27183569275826
      y: -1852.0674365233524
      z: 0.0
    orientation:
      x: 0.0
      y: 0.0
      z: -0.7002296909086765
      w: 0.7139176282806997
  covariance:
  - 0.001
  - 0.0
  - 0.0
  - 0.0
  - 0.0
  - 0.0
  - 0.0
  - 0.001
  - 0.0
  - 0.0
  - 0.0
  - 0.0
  - 0.0
  - 0.0
  - 0.001
  - 0.0
  - 0.0
  - 0.0
  - 0.0
  - 0.0
  - 0.0
  - 0.0001
  - 0.0
  - 0.0
  - 0.0
  - 0.0
  - 0.0
  - 0.0
  - 0.0001
  - 0.0
  - 0.0
  - 0.0
  - 0.0
  - 0.0
  - 0.0
  - 0.0001
---
header:
  stamp:
    sec: 289
    nanosec: 841000000
  frame_id: base_link
pose:
  pose:
    position:
      x: -318.27183569275826
      y: -1852.0674365233524
      z: 0.0
    orientation:
      x: 0.0
      y: 0.0
      z: -0.7002296909086765
      w: 0.7139176282806997
  covariance:
  - 0.001
  - 0.0
  - 0.0
  - 0.0
  - 0.0
  - 0.0
  - 0.0
  - 0.001
  - 0.0
  - 0.0
  - 0.0
  - 0.0
  - 0.0
  - 0.0
  - 0.001
  - 0.0
  - 0.0
  - 0.0
  - 0.0
  - 0.0
  - 0.0
  - 0.0001
  - 0.0
  - 0.0
  - 0.0
  - 0.0
  - 0.0
  - 0.0
  - 0.0001
  - 0.0
  - 0.0
  - 0.0
  - 0.0
  - 0.0
  - 0.0
  - 0.0001
---
header:
  stamp:
    sec: 289
    nanosec: 841000000
  frame_id: base_link
pose:
  pose:
    position:
      x: -318.27183569275826
      y: -1852.0674365233524
      z: 0.0
    orientation:
      x: 0.0
      y: 0.0
      z: -0.7002296909086765
      w: 0.7139176282806997
  covariance:
  - 0.001
  - 0.0
  - 0.0
  - 0.0
  - 0.0
  - 0.0
  - 0.0
  - 0.001
  - 0.0
  - 0.0
  - 0.0
  - 0.0
  - 0.0
  - 0.0
  - 0.001
  - 0.0
  - 0.0
  - 0.0
  - 0.0
  - 0.0
  - 0.0
  - 0.0001
  - 0.0
  - 0.0
  - 0.0
  - 0.0
  - 0.0
  - 0.0
  - 0.0001
  - 0.0
  - 0.0
  - 0.0
  - 0.0
  - 0.0
  - 0.0
  - 0.0001
---
header:
  stamp:
    sec: 289
    nanosec: 841999999
  frame_id: base_link
pose:
  pose:
    position:
      x: -318.27183569275826
      y: -1852.0674365233524
      z: 0.0
    orientation:
      x: 0.0
      y: 0.0
      z: -0.7002296909086765
      w: 0.7139176282806997
  covariance:
  - 0.001
  - 0.0
  - 0.0
  - 0.0
  - 0.0
  - 0.0
  - 0.0
  - 0.001
  - 0.0
  - 0.0
  - 0.0
  - 0.0
  - 0.0
  - 0.0
  - 0.001
  - 0.0
  - 0.0
  - 0.0
  - 0.0
  - 0.0
  - 0.0
  - 0.0001
  - 0.0
  - 0.0
  - 0.0
  - 0.0
  - 0.0
  - 0.0
  - 0.0001
  - 0.0
  - 0.0
  - 0.0
  - 0.0
  - 0.0
  - 0.0
  - 0.0001
---
header:
  stamp:
    sec: 289
    nanosec: 841999999
  frame_id: base_link
pose:
  pose:
    position:
      x: -318.27447181441556
      y: -1852.0575122807452
      z: 0.0
    orientation:
      x: 0.0
      y: 0.0
      z: -0.6975712410347531
      w: 0.7165154315722966
  covariance:
  - 0.001
  - 0.0
  - 0.0
  - 0.0
  - 0.0
  - 0.0
  - 0.0
  - 0.001
  - 0.0
  - 0.0
  - 0.0
  - 0.0
  - 0.0
  - 0.0
  - 0.001
  - 0.0
  - 0.0
  - 0.0
  - 0.0
  - 0.0
  - 0.0
  - 0.0001
  - 0.0
  - 0.0
  - 0.0
  - 0.0
  - 0.0
  - 0.0
  - 0.0001
  - 0.0
  - 0.0
  - 0.0
  - 0.0
  - 0.0
  - 0.0
  - 0.0001
---
header:
  stamp:
    sec: 289
    nanosec: 842999999
  frame_id: base_link
pose:
  pose:
    position:
      x: -318.27447181441556
      y: -1852.0575122807452
      z: 0.0
    orientation:
      x: 0.0
      y: 0.0
      z: -0.6975712410347531
      w: 0.7165154315722966
  covariance:
  - 0.001
  - 0.0
  - 0.0
  - 0.0
  - 0.0
  - 0.0
  - 0.0
  - 0.001
  - 0.0
  - 0.0
  - 0.0
  - 0.0
  - 0.0
  - 0.0
  - 0.001
  - 0.0
  - 0.0
  - 0.0
  - 0.0
  - 0.0
  - 0.0
  - 0.0001
  - 0.0
  - 0.0
  - 0.0
  - 0.0
  - 0.0
  - 0.0
  - 0.0001
  - 0.0
  - 0.0
  - 0.0
  - 0.0
  - 0.0
  - 0.0
  - 0.0001
---
header:
  stamp:
    sec: 289
    nanosec: 842999999
  frame_id: base_link
pose:
  pose:
    position:
      x: -318.27447181441556
      y: -1852.0575122807452
      z: 0.0
    orientation:
      x: 0.0
      y: 0.0
      z: -0.6975712410347531
      w: 0.7165154315722966
  covariance:
  - 0.001
  - 0.0
  - 0.0
  - 0.0
  - 0.0
  - 0.0
  - 0.0
  - 0.001
  - 0.0
  - 0.0
  - 0.0
  - 0.0
  - 0.0
  - 0.0
  - 0.001
  - 0.0
  - 0.0
  - 0.0
  - 0.0
  - 0.0
  - 0.0
  - 0.0001
  - 0.0
  - 0.0
  - 0.0
  - 0.0
  - 0.0
  - 0.0
  - 0.0001
  - 0.0
  - 0.0
  - 0.0
  - 0.0
  - 0.0
  - 0.0
  - 0.0001
---
header:
  stamp:
    sec: 289
    nanosec: 843999999
  frame_id: base_link
pose:
  pose:
    position:
      x: -318.27447181441556
      y: -1852.0575122807452
      z: 0.0
    orientation:
      x: 0.0
      y: 0.0
      z: -0.6975712410347531
      w: 0.7165154315722966
  covariance:
  - 0.001
  - 0.0
  - 0.0
  - 0.0
  - 0.0
  - 0.0
  - 0.0
  - 0.001
  - 0.0
  - 0.0
  - 0.0
  - 0.0
  - 0.0
  - 0.0
  - 0.001
  - 0.0
  - 0.0
  - 0.0
  - 0.0
  - 0.0
  - 0.0
  - 0.0001
  - 0.0
  - 0.0
  - 0.0
  - 0.0
  - 0.0
  - 0.0
  - 0.0001
  - 0.0
  - 0.0
  - 0.0
  - 0.0
  - 0.0
  - 0.0
  - 0.0001
---
header:
  stamp:
    sec: 289
    nanosec: 843999999
  frame_id: base_link
pose:
  pose:
    position:
      x: -318.25311946908806
      y: -1852.1459028089857
      z: 0.0
    orientation:
      x: 0.0
      y: 0.0
      z: -0.6980976962050527
      w: 0.7160025185383065
  covariance:
  - 0.001
  - 0.0
  - 0.0
  - 0.0
  - 0.0
  - 0.0
  - 0.0
  - 0.001
  - 0.0
  - 0.0
  - 0.0
  - 0.0
  - 0.0
  - 0.0
  - 0.001
  - 0.0
  - 0.0
  - 0.0
  - 0.0
  - 0.0
  - 0.0
  - 0.0001
  - 0.0
  - 0.0
  - 0.0
  - 0.0
  - 0.0
  - 0.0
  - 0.0001
  - 0.0
  - 0.0
  - 0.0
  - 0.0
  - 0.0
  - 0.0
  - 0.0001
---
header:
  stamp:
    sec: 289
    nanosec: 844999999
  frame_id: base_link
pose:
  pose:
    position:
      x: -318.25311946908806
      y: -1852.1459028089857
      z: 0.0
    orientation:
      x: 0.0
      y: 0.0
      z: -0.6980976962050527
      w: 0.7160025185383065
  covariance:
  - 0.001
  - 0.0
  - 0.0
  - 0.0
  - 0.0
  - 0.0
  - 0.0
  - 0.001
  - 0.0
  - 0.0
  - 0.0
  - 0.0
  - 0.0
  - 0.0
  - 0.001
  - 0.0
  - 0.0
  - 0.0
  - 0.0
  - 0.0
  - 0.0
  - 0.0001
  - 0.0
  - 0.0
  - 0.0
  - 0.0
  - 0.0
  - 0.0
  - 0.0001
  - 0.0
  - 0.0
  - 0.0
  - 0.0
  - 0.0
  - 0.0
  - 0.0001
---
header:
  stamp:
    sec: 289
    nanosec: 844999999
  frame_id: base_link
pose:
  pose:
    position:
      x: -318.25311946908806
      y: -1852.1459028089857
      z: 0.0
    orientation:
      x: 0.0
      y: 0.0
      z: -0.6980976962050527
      w: 0.7160025185383065
  covariance:
  - 0.001
  - 0.0
  - 0.0
  - 0.0
  - 0.0
  - 0.0
  - 0.0
  - 0.001
  - 0.0
  - 0.0
  - 0.0
  - 0.0
  - 0.0
  - 0.0
  - 0.001
  - 0.0
  - 0.0
  - 0.0
  - 0.0
  - 0.0
  - 0.0
  - 0.0001
  - 0.0
  - 0.0
  - 0.0
  - 0.0
  - 0.0
  - 0.0
  - 0.0001
  - 0.0
  - 0.0
  - 0.0
  - 0.0
  - 0.0
  - 0.0
  - 0.0001
---
header:
  stamp:
    sec: 289
    nanosec: 846000000
  frame_id: base_link
pose:
  pose:
    position:
      x: -318.25311946908806
      y: -1852.1459028089857
      z: 0.0
    orientation:
      x: 0.0
      y: 0.0
      z: -0.6980976962050527
      w: 0.7160025185383065
  covariance:
  - 0.001
  - 0.0
  - 0.0
  - 0.0
  - 0.0
  - 0.0
  - 0.0
  - 0.001
  - 0.0
  - 0.0
  - 0.0
  - 0.0
  - 0.0
  - 0.0
  - 0.001
  - 0.0
  - 0.0
  - 0.0
  - 0.0
  - 0.0
  - 0.0
  - 0.0001
  - 0.0
  - 0.0
  - 0.0
  - 0.0
  - 0.0
  - 0.0
  - 0.0001
  - 0.0
  - 0.0
  - 0.0
  - 0.0
  - 0.0
  - 0.0
  - 0.0001
---
header:
  stamp:
    sec: 289
    nanosec: 846000000
  frame_id: base_link
pose:
  pose:
    position:
      x: -318.2740249421246
      y: -1852.064550713801
      z: 0.0
    orientation:
      x: 0.0
      y: 0.0
      z: -0.698216215485405
      w: 0.7158869438907505
  covariance:
  - 0.001
  - 0.0
  - 0.0
  - 0.0
  - 0.0
  - 0.0
  - 0.0
  - 0.001
  - 0.0
  - 0.0
  - 0.0
  - 0.0
  - 0.0
  - 0.0
  - 0.001
  - 0.0
  - 0.0
  - 0.0
  - 0.0
  - 0.0
  - 0.0
  - 0.0001
  - 0.0
  - 0.0
  - 0.0
  - 0.0
  - 0.0
  - 0.0
  - 0.0001
  - 0.0
  - 0.0
  - 0.0
  - 0.0
  - 0.0
  - 0.0
  - 0.0001
---
header:
  stamp:
    sec: 289
    nanosec: 846999999
  frame_id: base_link
pose:
  pose:
    position:
      x: -318.2740249421246
      y: -1852.064550713801
      z: 0.0
    orientation:
      x: 0.0
      y: 0.0
      z: -0.698216215485405
      w: 0.7158869438907505
  covariance:
  - 0.001
  - 0.0
  - 0.0
  - 0.0
  - 0.0
  - 0.0
  - 0.0
  - 0.001
  - 0.0
  - 0.0
  - 0.0
  - 0.0
  - 0.0
  - 0.0
  - 0.001
  - 0.0
  - 0.0
  - 0.0
  - 0.0
  - 0.0
  - 0.0
  - 0.0001
  - 0.0
  - 0.0
  - 0.0
  - 0.0
  - 0.0
  - 0.0
  - 0.0001
  - 0.0
  - 0.0
  - 0.0
  - 0.0
  - 0.0
  - 0.0
  - 0.0001
---
header:
  stamp:
    sec: 289
    nanosec: 846999999
  frame_id: base_link
pose:
  pose:
    position:
      x: -318.2740249421246
      y: -1852.064550713801
      z: 0.0
    orientation:
      x: 0.0
      y: 0.0
      z: -0.698216215485405
      w: 0.7158869438907505
  covariance:
  - 0.001
  - 0.0
  - 0.0
  - 0.0
  - 0.0
  - 0.0
  - 0.0
  - 0.001
  - 0.0
  - 0.0
  - 0.0
  - 0.0
  - 0.0
  - 0.0
  - 0.001
  - 0.0
  - 0.0
  - 0.0
  - 0.0
  - 0.0
  - 0.0
  - 0.0001
  - 0.0
  - 0.0
  - 0.0
  - 0.0
  - 0.0
  - 0.0
  - 0.0001
  - 0.0
  - 0.0
  - 0.0
  - 0.0
  - 0.0
  - 0.0
  - 0.0001
---
header:
  stamp:
    sec: 289
    nanosec: 848000000
  frame_id: base_link
pose:
  pose:
    position:
      x: -318.2740249421246
      y: -1852.064550713801
      z: 0.0
    orientation:
      x: 0.0
      y: 0.0
      z: -0.698216215485405
      w: 0.7158869438907505
  covariance:
  - 0.001
  - 0.0
  - 0.0
  - 0.0
  - 0.0
  - 0.0
  - 0.0
  - 0.001
  - 0.0
  - 0.0
  - 0.0
  - 0.0
  - 0.0
  - 0.0
  - 0.001
  - 0.0
  - 0.0
  - 0.0
  - 0.0
  - 0.0
  - 0.0
  - 0.0001
  - 0.0
  - 0.0
  - 0.0
  - 0.0
  - 0.0
  - 0.0
  - 0.0001
  - 0.0
  - 0.0
  - 0.0
  - 0.0
  - 0.0
  - 0.0
  - 0.0001
---
header:
  stamp:
    sec: 289
    nanosec: 848000000
  frame_id: base_link
pose:
  pose:
    position:
      x: -318.1928179017681
      y: -1851.9741414553123
      z: 0.0
    orientation:
      x: 0.0
      y: 0.0
      z: -0.7019996128583637
      w: 0.7121773259144857
  covariance:
  - 0.001
  - 0.0
  - 0.0
  - 0.0
  - 0.0
  - 0.0
  - 0.0
  - 0.001
  - 0.0
  - 0.0
  - 0.0
  - 0.0
  - 0.0
  - 0.0
  - 0.001
  - 0.0
  - 0.0
  - 0.0
  - 0.0
  - 0.0
  - 0.0
  - 0.0001
  - 0.0
  - 0.0
  - 0.0
  - 0.0
  - 0.0
  - 0.0
  - 0.0001
  - 0.0
  - 0.0
  - 0.0
  - 0.0
  - 0.0
  - 0.0
  - 0.0001
---
header:
  stamp:
    sec: 289
    nanosec: 848999999
  frame_id: base_link
pose:
  pose:
    position:
      x: -318.1928179017681
      y: -1851.9741414553123
      z: 0.0
    orientation:
      x: 0.0
      y: 0.0
      z: -0.7019996128583637
      w: 0.7121773259144857
  covariance:
  - 0.001
  - 0.0
  - 0.0
  - 0.0
  - 0.0
  - 0.0
  - 0.0
  - 0.001
  - 0.0
  - 0.0
  - 0.0
  - 0.0
  - 0.0
  - 0.0
  - 0.001
  - 0.0
  - 0.0
  - 0.0
  - 0.0
  - 0.0
  - 0.0
  - 0.0001
  - 0.0
  - 0.0
  - 0.0
  - 0.0
  - 0.0
  - 0.0
  - 0.0001
  - 0.0
  - 0.0
  - 0.0
  - 0.0
  - 0.0
  - 0.0
  - 0.0001
---
header:
  stamp:
    sec: 289
    nanosec: 848999999
  frame_id: base_link
pose:
  pose:
    position:
      x: -318.1928179017681
      y: -1851.9741414553123
      z: 0.0
    orientation:
      x: 0.0
      y: 0.0
      z: -0.7019996128583637
      w: 0.7121773259144857
  covariance:
  - 0.001
  - 0.0
  - 0.0
  - 0.0
  - 0.0
  - 0.0
  - 0.0
  - 0.001
  - 0.0
  - 0.0
  - 0.0
  - 0.0
  - 0.0
  - 0.0
  - 0.001
  - 0.0
  - 0.0
  - 0.0
  - 0.0
  - 0.0
  - 0.0
  - 0.0001
  - 0.0
  - 0.0
  - 0.0
  - 0.0
  - 0.0
  - 0.0
  - 0.0001
  - 0.0
  - 0.0
  - 0.0
  - 0.0
  - 0.0
  - 0.0
  - 0.0001
---
header:
  stamp:
    sec: 289
    nanosec: 850000000
  frame_id: base_link
pose:
  pose:
    position:
      x: -318.1928179017681
      y: -1851.9741414553123
      z: 0.0
    orientation:
      x: 0.0
      y: 0.0
      z: -0.7019996128583637
      w: 0.7121773259144857
  covariance:
  - 0.001
  - 0.0
  - 0.0
  - 0.0
  - 0.0
  - 0.0
  - 0.0
  - 0.001
  - 0.0
  - 0.0
  - 0.0
  - 0.0
  - 0.0
  - 0.0
  - 0.001
  - 0.0
  - 0.0
  - 0.0
  - 0.0
  - 0.0
  - 0.0
  - 0.0001
  - 0.0
  - 0.0
  - 0.0
  - 0.0
  - 0.0
  - 0.0
  - 0.0001
  - 0.0
  - 0.0
  - 0.0
  - 0.0
  - 0.0
  - 0.0
  - 0.0001
---
header:
  stamp:
    sec: 289
    nanosec: 850000000
  frame_id: base_link
pose:
  pose:
    position:
      x: -318.25434656767226
      y: -1852.0157417423577
      z: 0.0
    orientation:
      x: 0.0
      y: 0.0
      z: -0.6998705714230035
      w: 0.714269685242233
  covariance:
  - 0.001
  - 0.0
  - 0.0
  - 0.0
  - 0.0
  - 0.0
  - 0.0
  - 0.001
  - 0.0
  - 0.0
  - 0.0
  - 0.0
  - 0.0
  - 0.0
  - 0.001
  - 0.0
  - 0.0
  - 0.0
  - 0.0
  - 0.0
  - 0.0
  - 0.0001
  - 0.0
  - 0.0
  - 0.0
  - 0.0
  - 0.0
  - 0.0
  - 0.0001
  - 0.0
  - 0.0
  - 0.0
  - 0.0
  - 0.0
  - 0.0
  - 0.0001
---
header:
  stamp:
    sec: 289
    nanosec: 850999999
  frame_id: base_link
pose:
  pose:
    position:
      x: -318.25434656767226
      y: -1852.0157417423577
      z: 0.0
    orientation:
      x: 0.0
      y: 0.0
      z: -0.6998705714230035
      w: 0.714269685242233
  covariance:
  - 0.001
  - 0.0
  - 0.0
  - 0.0
  - 0.0
  - 0.0
  - 0.0
  - 0.001
  - 0.0
  - 0.0
  - 0.0
  - 0.0
  - 0.0
  - 0.0
  - 0.001
  - 0.0
  - 0.0
  - 0.0
  - 0.0
  - 0.0
  - 0.0
  - 0.0001
  - 0.0
  - 0.0
  - 0.0
  - 0.0
  - 0.0
  - 0.0
  - 0.0001
  - 0.0
  - 0.0
  - 0.0
  - 0.0
  - 0.0
  - 0.0
  - 0.0001
---
header:
  stamp:
    sec: 289
    nanosec: 850999999
  frame_id: base_link
pose:
  pose:
    position:
      x: -318.25434656767226
      y: -1852.0157417423577
      z: 0.0
    orientation:
      x: 0.0
      y: 0.0
      z: -0.6998705714230035
      w: 0.714269685242233
  covariance:
  - 0.001
  - 0.0
  - 0.0
  - 0.0
  - 0.0
  - 0.0
  - 0.0
  - 0.001
  - 0.0
  - 0.0
  - 0.0
  - 0.0
  - 0.0
  - 0.0
  - 0.001
  - 0.0
  - 0.0
  - 0.0
  - 0.0
  - 0.0
  - 0.0
  - 0.0001
  - 0.0
  - 0.0
  - 0.0
  - 0.0
  - 0.0
  - 0.0
  - 0.0001
  - 0.0
  - 0.0
  - 0.0
  - 0.0
  - 0.0
  - 0.0
  - 0.0001
---
header:
  stamp:
    sec: 289
    nanosec: 852000000
  frame_id: base_link
pose:
  pose:
    position:
      x: -318.25434656767226
      y: -1852.0157417423577
      z: 0.0
    orientation:
      x: 0.0
      y: 0.0
      z: -0.6998705714230035
      w: 0.714269685242233
  covariance:
  - 0.001
  - 0.0
  - 0.0
  - 0.0
  - 0.0
  - 0.0
  - 0.0
  - 0.001
  - 0.0
  - 0.0
  - 0.0
  - 0.0
  - 0.0
  - 0.0
  - 0.001
  - 0.0
  - 0.0
  - 0.0
  - 0.0
  - 0.0
  - 0.0
  - 0.0001
  - 0.0
  - 0.0
  - 0.0
  - 0.0
  - 0.0
  - 0.0
  - 0.0001
  - 0.0
  - 0.0
  - 0.0
  - 0.0
  - 0.0
  - 0.0
  - 0.0001
---
header:
  stamp:
    sec: 289
    nanosec: 852000000
  frame_id: base_link
pose:
  pose:
    position:
      x: -318.1972621599052
      y: -1852.0495860309416
      z: 0.0
    orientation:
      x: 0.0
      y: 0.0
      z: -0.6998923092181717
      w: 0.7142483850155036
  covariance:
  - 0.001
  - 0.0
  - 0.0
  - 0.0
  - 0.0
  - 0.0
  - 0.0
  - 0.001
  - 0.0
  - 0.0
  - 0.0
  - 0.0
  - 0.0
  - 0.0
  - 0.001
  - 0.0
  - 0.0
  - 0.0
  - 0.0
  - 0.0
  - 0.0
  - 0.0001
  - 0.0
  - 0.0
  - 0.0
  - 0.0
  - 0.0
  - 0.0
  - 0.0001
  - 0.0
  - 0.0
  - 0.0
  - 0.0
  - 0.0
  - 0.0
  - 0.0001
---
header:
  stamp:
    sec: 289
    nanosec: 853000000
  frame_id: base_link
pose:
  pose:
    position:
      x: -318.1972621599052
      y: -1852.0495860309416
      z: 0.0
    orientation:
      x: 0.0
      y: 0.0
      z: -0.6998923092181717
      w: 0.7142483850155036
  covariance:
  - 0.001
  - 0.0
  - 0.0
  - 0.0
  - 0.0
  - 0.0
  - 0.0
  - 0.001
  - 0.0
  - 0.0
  - 0.0
  - 0.0
  - 0.0
  - 0.0
  - 0.001
  - 0.0
  - 0.0
  - 0.0
  - 0.0
  - 0.0
  - 0.0
  - 0.0001
  - 0.0
  - 0.0
  - 0.0
  - 0.0
  - 0.0
  - 0.0
  - 0.0001
  - 0.0
  - 0.0
  - 0.0
  - 0.0
  - 0.0
  - 0.0
  - 0.0001
---
header:
  stamp:
    sec: 289
    nanosec: 853000000
  frame_id: base_link
pose:
  pose:
    position:
      x: -318.1972621599052
      y: -1852.0495860309416
      z: 0.0
    orientation:
      x: 0.0
      y: 0.0
      z: -0.6998923092181717
      w: 0.7142483850155036
  covariance:
  - 0.001
  - 0.0
  - 0.0
  - 0.0
  - 0.0
  - 0.0
  - 0.0
  - 0.001
  - 0.0
  - 0.0
  - 0.0
  - 0.0
  - 0.0
  - 0.0
  - 0.001
  - 0.0
  - 0.0
  - 0.0
  - 0.0
  - 0.0
  - 0.0
  - 0.0001
  - 0.0
  - 0.0
  - 0.0
  - 0.0
  - 0.0
  - 0.0
  - 0.0001
  - 0.0
  - 0.0
  - 0.0
  - 0.0
  - 0.0
  - 0.0
  - 0.0001
---
header:
  stamp:
    sec: 289
    nanosec: 853999999
  frame_id: base_link
pose:
  pose:
    position:
      x: -318.1972621599052
      y: -1852.0495860309416
      z: 0.0
    orientation:
      x: 0.0
      y: 0.0
      z: -0.6998923092181717
      w: 0.7142483850155036
  covariance:
  - 0.001
  - 0.0
  - 0.0
  - 0.0
  - 0.0
  - 0.0
  - 0.0
  - 0.001
  - 0.0
  - 0.0
  - 0.0
  - 0.0
  - 0.0
  - 0.0
  - 0.001
  - 0.0
  - 0.0
  - 0.0
  - 0.0
  - 0.0
  - 0.0
  - 0.0001
  - 0.0
  - 0.0
  - 0.0
  - 0.0
  - 0.0
  - 0.0
  - 0.0001
  - 0.0
  - 0.0
  - 0.0
  - 0.0
  - 0.0
  - 0.0
  - 0.0001
---
header:
  stamp:
    sec: 289
    nanosec: 853999999
  frame_id: base_link
pose:
  pose:
    position:
      x: -318.228418234544
      y: -1852.0645748473062
      z: 0.0
    orientation:
      x: 0.0
      y: 0.0
      z: -0.7047223304400825
      w: 0.7094832182505089
  covariance:
  - 0.001
  - 0.0
  - 0.0
  - 0.0
  - 0.0
  - 0.0
  - 0.0
  - 0.001
  - 0.0
  - 0.0
  - 0.0
  - 0.0
  - 0.0
  - 0.0
  - 0.001
  - 0.0
  - 0.0
  - 0.0
  - 0.0
  - 0.0
  - 0.0
  - 0.0001
  - 0.0
  - 0.0
  - 0.0
  - 0.0
  - 0.0
  - 0.0
  - 0.0001
  - 0.0
  - 0.0
  - 0.0
  - 0.0
  - 0.0
  - 0.0
  - 0.0001
---
header:
  stamp:
    sec: 289
    nanosec: 854999999
  frame_id: base_link
pose:
  pose:
    position:
      x: -318.228418234544
      y: -1852.0645748473062
      z: 0.0
    orientation:
      x: 0.0
      y: 0.0
      z: -0.7047223304400825
      w: 0.7094832182505089
  covariance:
  - 0.001
  - 0.0
  - 0.0
  - 0.0
  - 0.0
  - 0.0
  - 0.0
  - 0.001
  - 0.0
  - 0.0
  - 0.0
  - 0.0
  - 0.0
  - 0.0
  - 0.001
  - 0.0
  - 0.0
  - 0.0
  - 0.0
  - 0.0
  - 0.0
  - 0.0001
  - 0.0
  - 0.0
  - 0.0
  - 0.0
  - 0.0
  - 0.0
  - 0.0001
  - 0.0
  - 0.0
  - 0.0
  - 0.0
  - 0.0
  - 0.0
  - 0.0001
---
header:
  stamp:
    sec: 289
    nanosec: 854999999
  frame_id: base_link
pose:
  pose:
    position:
      x: -318.228418234544
      y: -1852.0645748473062
      z: 0.0
    orientation:
      x: 0.0
      y: 0.0
      z: -0.7047223304400825
      w: 0.7094832182505089
  covariance:
  - 0.001
  - 0.0
  - 0.0
  - 0.0
  - 0.0
  - 0.0
  - 0.0
  - 0.001
  - 0.0
  - 0.0
  - 0.0
  - 0.0
  - 0.0
  - 0.0
  - 0.001
  - 0.0
  - 0.0
  - 0.0
  - 0.0
  - 0.0
  - 0.0
  - 0.0001
  - 0.0
  - 0.0
  - 0.0
  - 0.0
  - 0.0
  - 0.0
  - 0.0001
  - 0.0
  - 0.0
  - 0.0
  - 0.0
  - 0.0
  - 0.0
  - 0.0001
---
header:
  stamp:
    sec: 289
    nanosec: 855999999
  frame_id: base_link
pose:
  pose:
    position:
      x: -318.228418234544
      y: -1852.0645748473062
      z: 0.0
    orientation:
      x: 0.0
      y: 0.0
      z: -0.7047223304400825
      w: 0.7094832182505089
  covariance:
  - 0.001
  - 0.0
  - 0.0
  - 0.0
  - 0.0
  - 0.0
  - 0.0
  - 0.001
  - 0.0
  - 0.0
  - 0.0
  - 0.0
  - 0.0
  - 0.0
  - 0.001
  - 0.0
  - 0.0
  - 0.0
  - 0.0
  - 0.0
  - 0.0
  - 0.0001
  - 0.0
  - 0.0
  - 0.0
  - 0.0
  - 0.0
  - 0.0
  - 0.0001
  - 0.0
  - 0.0
  - 0.0
  - 0.0
  - 0.0
  - 0.0
  - 0.0001
---
header:
  stamp:
    sec: 289
    nanosec: 855999999
  frame_id: base_link
pose:
  pose:
    position:
      x: -318.291955306858
      y: -1852.071844475992
      z: 0.0
    orientation:
      x: 0.0
      y: 0.0
      z: -0.6985082144434234
      w: 0.7156020362988499
  covariance:
  - 0.001
  - 0.0
  - 0.0
  - 0.0
  - 0.0
  - 0.0
  - 0.0
  - 0.001
  - 0.0
  - 0.0
  - 0.0
  - 0.0
  - 0.0
  - 0.0
  - 0.001
  - 0.0
  - 0.0
  - 0.0
  - 0.0
  - 0.0
  - 0.0
  - 0.0001
  - 0.0
  - 0.0
  - 0.0
  - 0.0
  - 0.0
  - 0.0
  - 0.0001
  - 0.0
  - 0.0
  - 0.0
  - 0.0
  - 0.0
  - 0.0
  - 0.0001
---
header:
  stamp:
    sec: 289
    nanosec: 856999999
  frame_id: base_link
pose:
  pose:
    position:
      x: -318.291955306858
      y: -1852.071844475992
      z: 0.0
    orientation:
      x: 0.0
      y: 0.0
      z: -0.6985082144434234
      w: 0.7156020362988499
  covariance:
  - 0.001
  - 0.0
  - 0.0
  - 0.0
  - 0.0
  - 0.0
  - 0.0
  - 0.001
  - 0.0
  - 0.0
  - 0.0
  - 0.0
  - 0.0
  - 0.0
  - 0.001
  - 0.0
  - 0.0
  - 0.0
  - 0.0
  - 0.0
  - 0.0
  - 0.0001
  - 0.0
  - 0.0
  - 0.0
  - 0.0
  - 0.0
  - 0.0
  - 0.0001
  - 0.0
  - 0.0
  - 0.0
  - 0.0
  - 0.0
  - 0.0
  - 0.0001
---
header:
  stamp:
    sec: 289
    nanosec: 856999999
  frame_id: base_link
pose:
  pose:
    position:
      x: -318.291955306858
      y: -1852.071844475992
      z: 0.0
    orientation:
      x: 0.0
      y: 0.0
      z: -0.6985082144434234
      w: 0.7156020362988499
  covariance:
  - 0.001
  - 0.0
  - 0.0
  - 0.0
  - 0.0
  - 0.0
  - 0.0
  - 0.001
  - 0.0
  - 0.0
  - 0.0
  - 0.0
  - 0.0
  - 0.0
  - 0.001
  - 0.0
  - 0.0
  - 0.0
  - 0.0
  - 0.0
  - 0.0
  - 0.0001
  - 0.0
  - 0.0
  - 0.0
  - 0.0
  - 0.0
  - 0.0
  - 0.0001
  - 0.0
  - 0.0
  - 0.0
  - 0.0
  - 0.0
  - 0.0
  - 0.0001
---
header:
  stamp:
    sec: 289
    nanosec: 858000000
  frame_id: base_link
pose:
  pose:
    position:
      x: -318.291955306858
      y: -1852.071844475992
      z: 0.0
    orientation:
      x: 0.0
      y: 0.0
      z: -0.6985082144434234
      w: 0.7156020362988499
  covariance:
  - 0.001
  - 0.0
  - 0.0
  - 0.0
  - 0.0
  - 0.0
  - 0.0
  - 0.001
  - 0.0
  - 0.0
  - 0.0
  - 0.0
  - 0.0
  - 0.0
  - 0.001
  - 0.0
  - 0.0
  - 0.0
  - 0.0
  - 0.0
  - 0.0
  - 0.0001
  - 0.0
  - 0.0
  - 0.0
  - 0.0
  - 0.0
  - 0.0
  - 0.0001
  - 0.0
  - 0.0
  - 0.0
  - 0.0
  - 0.0
  - 0.0
  - 0.0001
---
header:
  stamp:
    sec: 289
    nanosec: 858000000
  frame_id: base_link
pose:
  pose:
    position:
      x: -318.2465308259795
      y: -1852.045238953594
      z: 0.0
    orientation:
      x: 0.0
      y: 0.0
      z: -0.6997888809496517
      w: 0.7143497197446319
  covariance:
  - 0.001
  - 0.0
  - 0.0
  - 0.0
  - 0.0
  - 0.0
  - 0.0
  - 0.001
  - 0.0
  - 0.0
  - 0.0
  - 0.0
  - 0.0
  - 0.0
  - 0.001
  - 0.0
  - 0.0
  - 0.0
  - 0.0
  - 0.0
  - 0.0
  - 0.0001
  - 0.0
  - 0.0
  - 0.0
  - 0.0
  - 0.0
  - 0.0
  - 0.0001
  - 0.0
  - 0.0
  - 0.0
  - 0.0
  - 0.0
  - 0.0
  - 0.0001
---
header:
  stamp:
    sec: 289
    nanosec: 858999999
  frame_id: base_link
pose:
  pose:
    position:
      x: -318.2465308259795
      y: -1852.045238953594
      z: 0.0
    orientation:
      x: 0.0
      y: 0.0
      z: -0.6997888809496517
      w: 0.7143497197446319
  covariance:
  - 0.001
  - 0.0
  - 0.0
  - 0.0
  - 0.0
  - 0.0
  - 0.0
  - 0.001
  - 0.0
  - 0.0
  - 0.0
  - 0.0
  - 0.0
  - 0.0
  - 0.001
  - 0.0
  - 0.0
  - 0.0
  - 0.0
  - 0.0
  - 0.0
  - 0.0001
  - 0.0
  - 0.0
  - 0.0
  - 0.0
  - 0.0
  - 0.0
  - 0.0001
  - 0.0
  - 0.0
  - 0.0
  - 0.0
  - 0.0
  - 0.0
  - 0.0001
---
header:
  stamp:
    sec: 289
    nanosec: 858999999
  frame_id: base_link
pose:
  pose:
    position:
      x: -318.2465308259795
      y: -1852.045238953594
      z: 0.0
    orientation:
      x: 0.0
      y: 0.0
      z: -0.6997888809496517
      w: 0.7143497197446319
  covariance:
  - 0.001
  - 0.0
  - 0.0
  - 0.0
  - 0.0
  - 0.0
  - 0.0
  - 0.001
  - 0.0
  - 0.0
  - 0.0
  - 0.0
  - 0.0
  - 0.0
  - 0.001
  - 0.0
  - 0.0
  - 0.0
  - 0.0
  - 0.0
  - 0.0
  - 0.0001
  - 0.0
  - 0.0
  - 0.0
  - 0.0
  - 0.0
  - 0.0
  - 0.0001
  - 0.0
  - 0.0
  - 0.0
  - 0.0
  - 0.0
  - 0.0
  - 0.0001
---
header:
  stamp:
    sec: 289
    nanosec: 860000000
  frame_id: base_link
pose:
  pose:
    position:
      x: -318.2465308259795
      y: -1852.045238953594
      z: 0.0
    orientation:
      x: 0.0
      y: 0.0
      z: -0.6997888809496517
      w: 0.7143497197446319
  covariance:
  - 0.001
  - 0.0
  - 0.0
  - 0.0
  - 0.0
  - 0.0
  - 0.0
  - 0.001
  - 0.0
  - 0.0
  - 0.0
  - 0.0
  - 0.0
  - 0.0
  - 0.001
  - 0.0
  - 0.0
  - 0.0
  - 0.0
  - 0.0
  - 0.0
  - 0.0001
  - 0.0
  - 0.0
  - 0.0
  - 0.0
  - 0.0
  - 0.0
  - 0.0001
  - 0.0
  - 0.0
  - 0.0
  - 0.0
  - 0.0
  - 0.0
  - 0.0001
---
header:
  stamp:
    sec: 289
    nanosec: 860000000
  frame_id: base_link
pose:
  pose:
    position:
      x: -318.24849950165986
      y: -1852.1002697111376
      z: 0.0
    orientation:
      x: 0.0
      y: 0.0
      z: -0.7059901849379193
      w: 0.708221616989571
  covariance:
  - 0.001
  - 0.0
  - 0.0
  - 0.0
  - 0.0
  - 0.0
  - 0.0
  - 0.001
  - 0.0
  - 0.0
  - 0.0
  - 0.0
  - 0.0
  - 0.0
  - 0.001
  - 0.0
  - 0.0
  - 0.0
  - 0.0
  - 0.0
  - 0.0
  - 0.0001
  - 0.0
  - 0.0
  - 0.0
  - 0.0
  - 0.0
  - 0.0
  - 0.0001
  - 0.0
  - 0.0
  - 0.0
  - 0.0
  - 0.0
  - 0.0
  - 0.0001
---
header:
  stamp:
    sec: 289
    nanosec: 860999999
  frame_id: base_link
pose:
  pose:
    position:
      x: -318.24849950165986
      y: -1852.1002697111376
      z: 0.0
    orientation:
      x: 0.0
      y: 0.0
      z: -0.7059901849379193
      w: 0.708221616989571
  covariance:
  - 0.001
  - 0.0
  - 0.0
  - 0.0
  - 0.0
  - 0.0
  - 0.0
  - 0.001
  - 0.0
  - 0.0
  - 0.0
  - 0.0
  - 0.0
  - 0.0
  - 0.001
  - 0.0
  - 0.0
  - 0.0
  - 0.0
  - 0.0
  - 0.0
  - 0.0001
  - 0.0
  - 0.0
  - 0.0
  - 0.0
  - 0.0
  - 0.0
  - 0.0001
  - 0.0
  - 0.0
  - 0.0
  - 0.0
  - 0.0
  - 0.0
  - 0.0001
---
header:
  stamp:
    sec: 289
    nanosec: 860999999
  frame_id: base_link
pose:
  pose:
    position:
      x: -318.24849950165986
      y: -1852.1002697111376
      z: 0.0
    orientation:
      x: 0.0
      y: 0.0
      z: -0.7059901849379193
      w: 0.708221616989571
  covariance:
  - 0.001
  - 0.0
  - 0.0
  - 0.0
  - 0.0
  - 0.0
  - 0.0
  - 0.001
  - 0.0
  - 0.0
  - 0.0
  - 0.0
  - 0.0
  - 0.0
  - 0.001
  - 0.0
  - 0.0
  - 0.0
  - 0.0
  - 0.0
  - 0.0
  - 0.0001
  - 0.0
  - 0.0
  - 0.0
  - 0.0
  - 0.0
  - 0.0
  - 0.0001
  - 0.0
  - 0.0
  - 0.0
  - 0.0
  - 0.0
  - 0.0
  - 0.0001
---
header:
  stamp:
    sec: 289
    nanosec: 862000000
  frame_id: base_link
pose:
  pose:
    position:
      x: -318.24849950165986
      y: -1852.1002697111376
      z: 0.0
    orientation:
      x: 0.0
      y: 0.0
      z: -0.7059901849379193
      w: 0.708221616989571
  covariance:
  - 0.001
  - 0.0
  - 0.0
  - 0.0
  - 0.0
  - 0.0
  - 0.0
  - 0.001
  - 0.0
  - 0.0
  - 0.0
  - 0.0
  - 0.0
  - 0.0
  - 0.001
  - 0.0
  - 0.0
  - 0.0
  - 0.0
  - 0.0
  - 0.0
  - 0.0001
  - 0.0
  - 0.0
  - 0.0
  - 0.0
  - 0.0
  - 0.0
  - 0.0001
  - 0.0
  - 0.0
  - 0.0
  - 0.0
  - 0.0
  - 0.0
  - 0.0001
---
header:
  stamp:
    sec: 289
    nanosec: 862000000
  frame_id: base_link
pose:
  pose:
    position:
      x: -318.229425657919
      y: -1852.051099788624
      z: 0.0
    orientation:
      x: 0.0
      y: 0.0
      z: -0.6998707126307131
      w: 0.7142695468811322
  covariance:
  - 0.001
  - 0.0
  - 0.0
  - 0.0
  - 0.0
  - 0.0
  - 0.0
  - 0.001
  - 0.0
  - 0.0
  - 0.0
  - 0.0
  - 0.0
  - 0.0
  - 0.001
  - 0.0
  - 0.0
  - 0.0
  - 0.0
  - 0.0
  - 0.0
  - 0.0001
  - 0.0
  - 0.0
  - 0.0
  - 0.0
  - 0.0
  - 0.0
  - 0.0001
  - 0.0
  - 0.0
  - 0.0
  - 0.0
  - 0.0
  - 0.0
  - 0.0001
---
header:
  stamp:
    sec: 289
    nanosec: 862999999
  frame_id: base_link
pose:
  pose:
    position:
      x: -318.229425657919
      y: -1852.051099788624
      z: 0.0
    orientation:
      x: 0.0
      y: 0.0
      z: -0.6998707126307131
      w: 0.7142695468811322
  covariance:
  - 0.001
  - 0.0
  - 0.0
  - 0.0
  - 0.0
  - 0.0
  - 0.0
  - 0.001
  - 0.0
  - 0.0
  - 0.0
  - 0.0
  - 0.0
  - 0.0
  - 0.001
  - 0.0
  - 0.0
  - 0.0
  - 0.0
  - 0.0
  - 0.0
  - 0.0001
  - 0.0
  - 0.0
  - 0.0
  - 0.0
  - 0.0
  - 0.0
  - 0.0001
  - 0.0
  - 0.0
  - 0.0
  - 0.0
  - 0.0
  - 0.0
  - 0.0001
---
header:
  stamp:
    sec: 289
    nanosec: 862999999
  frame_id: base_link
pose:
  pose:
    position:
      x: -318.229425657919
      y: -1852.051099788624
      z: 0.0
    orientation:
      x: 0.0
      y: 0.0
      z: -0.6998707126307131
      w: 0.7142695468811322
  covariance:
  - 0.001
  - 0.0
  - 0.0
  - 0.0
  - 0.0
  - 0.0
  - 0.0
  - 0.001
  - 0.0
  - 0.0
  - 0.0
  - 0.0
  - 0.0
  - 0.0
  - 0.001
  - 0.0
  - 0.0
  - 0.0
  - 0.0
  - 0.0
  - 0.0
  - 0.0001
  - 0.0
  - 0.0
  - 0.0
  - 0.0
  - 0.0
  - 0.0
  - 0.0001
  - 0.0
  - 0.0
  - 0.0
  - 0.0
  - 0.0
  - 0.0
  - 0.0001
---
header:
  stamp:
    sec: 289
    nanosec: 864000000
  frame_id: base_link
pose:
  pose:
    position:
      x: -318.229425657919
      y: -1852.051099788624
      z: 0.0
    orientation:
      x: 0.0
      y: 0.0
      z: -0.6998707126307131
      w: 0.7142695468811322
  covariance:
  - 0.001
  - 0.0
  - 0.0
  - 0.0
  - 0.0
  - 0.0
  - 0.0
  - 0.001
  - 0.0
  - 0.0
  - 0.0
  - 0.0
  - 0.0
  - 0.0
  - 0.001
  - 0.0
  - 0.0
  - 0.0
  - 0.0
  - 0.0
  - 0.0
  - 0.0001
  - 0.0
  - 0.0
  - 0.0
  - 0.0
  - 0.0
  - 0.0
  - 0.0001
  - 0.0
  - 0.0
  - 0.0
  - 0.0
  - 0.0
  - 0.0
  - 0.0001
---
header:
  stamp:
    sec: 289
    nanosec: 864000000
  frame_id: base_link
pose:
  pose:
    position:
      x: -318.20237772960644
      y: -1852.099969944754
      z: 0.0
    orientation:
      x: 0.0
      y: 0.0
      z: -0.7063313034798115
      w: 0.7078814093649517
  covariance:
  - 0.001
  - 0.0
  - 0.0
  - 0.0
  - 0.0
  - 0.0
  - 0.0
  - 0.001
  - 0.0
  - 0.0
  - 0.0
  - 0.0
  - 0.0
  - 0.0
  - 0.001
  - 0.0
  - 0.0
  - 0.0
  - 0.0
  - 0.0
  - 0.0
  - 0.0001
  - 0.0
  - 0.0
  - 0.0
  - 0.0
  - 0.0
  - 0.0
  - 0.0001
  - 0.0
  - 0.0
  - 0.0
  - 0.0
  - 0.0
  - 0.0
  - 0.0001
---
header:
  stamp:
    sec: 289
    nanosec: 865000000
  frame_id: base_link
pose:
  pose:
    position:
      x: -318.20237772960644
      y: -1852.099969944754
      z: 0.0
    orientation:
      x: 0.0
      y: 0.0
      z: -0.7063313034798115
      w: 0.7078814093649517
  covariance:
  - 0.001
  - 0.0
  - 0.0
  - 0.0
  - 0.0
  - 0.0
  - 0.0
  - 0.001
  - 0.0
  - 0.0
  - 0.0
  - 0.0
  - 0.0
  - 0.0
  - 0.001
  - 0.0
  - 0.0
  - 0.0
  - 0.0
  - 0.0
  - 0.0
  - 0.0001
  - 0.0
  - 0.0
  - 0.0
  - 0.0
  - 0.0
  - 0.0
  - 0.0001
  - 0.0
  - 0.0
  - 0.0
  - 0.0
  - 0.0
  - 0.0
  - 0.0001
---
header:
  stamp:
    sec: 289
    nanosec: 865000000
  frame_id: base_link
pose:
  pose:
    position:
      x: -318.20237772960644
      y: -1852.099969944754
      z: 0.0
    orientation:
      x: 0.0
      y: 0.0
      z: -0.7063313034798115
      w: 0.7078814093649517
  covariance:
  - 0.001
  - 0.0
  - 0.0
  - 0.0
  - 0.0
  - 0.0
  - 0.0
  - 0.001
  - 0.0
  - 0.0
  - 0.0
  - 0.0
  - 0.0
  - 0.0
  - 0.001
  - 0.0
  - 0.0
  - 0.0
  - 0.0
  - 0.0
  - 0.0
  - 0.0001
  - 0.0
  - 0.0
  - 0.0
  - 0.0
  - 0.0
  - 0.0
  - 0.0001
  - 0.0
  - 0.0
  - 0.0
  - 0.0
  - 0.0
  - 0.0
  - 0.0001
---
header:
  stamp:
    sec: 289
    nanosec: 865999999
  frame_id: base_link
pose:
  pose:
    position:
      x: -318.20237772960644
      y: -1852.099969944754
      z: 0.0
    orientation:
      x: 0.0
      y: 0.0
      z: -0.7063313034798115
      w: 0.7078814093649517
  covariance:
  - 0.001
  - 0.0
  - 0.0
  - 0.0
  - 0.0
  - 0.0
  - 0.0
  - 0.001
  - 0.0
  - 0.0
  - 0.0
  - 0.0
  - 0.0
  - 0.0
  - 0.001
  - 0.0
  - 0.0
  - 0.0
  - 0.0
  - 0.0
  - 0.0
  - 0.0001
  - 0.0
  - 0.0
  - 0.0
  - 0.0
  - 0.0
  - 0.0
  - 0.0001
  - 0.0
  - 0.0
  - 0.0
  - 0.0
  - 0.0
  - 0.0
  - 0.0001
---
header:
  stamp:
    sec: 289
    nanosec: 865999999
  frame_id: base_link
pose:
  pose:
    position:
      x: -318.25706749256324
      y: -1852.0756881855482
      z: 0.0
    orientation:
      x: 0.0
      y: 0.0
      z: 0.7095528549157206
      w: -0.7046522164024962
  covariance:
  - 0.001
  - 0.0
  - 0.0
  - 0.0
  - 0.0
  - 0.0
  - 0.0
  - 0.001
  - 0.0
  - 0.0
  - 0.0
  - 0.0
  - 0.0
  - 0.0
  - 0.001
  - 0.0
  - 0.0
  - 0.0
  - 0.0
  - 0.0
  - 0.0
  - 0.0001
  - 0.0
  - 0.0
  - 0.0
  - 0.0
  - 0.0
  - 0.0
  - 0.0001
  - 0.0
  - 0.0
  - 0.0
  - 0.0
  - 0.0
  - 0.0
  - 0.0001
---
header:
  stamp:
    sec: 289
    nanosec: 866999999
  frame_id: base_link
pose:
  pose:
    position:
      x: -318.25706749256324
      y: -1852.0756881855482
      z: 0.0
    orientation:
      x: 0.0
      y: 0.0
      z: 0.7095528549157206
      w: -0.7046522164024962
  covariance:
  - 0.001
  - 0.0
  - 0.0
  - 0.0
  - 0.0
  - 0.0
  - 0.0
  - 0.001
  - 0.0
  - 0.0
  - 0.0
  - 0.0
  - 0.0
  - 0.0
  - 0.001
  - 0.0
  - 0.0
  - 0.0
  - 0.0
  - 0.0
  - 0.0
  - 0.0001
  - 0.0
  - 0.0
  - 0.0
  - 0.0
  - 0.0
  - 0.0
  - 0.0001
  - 0.0
  - 0.0
  - 0.0
  - 0.0
  - 0.0
  - 0.0
  - 0.0001
---
header:
  stamp:
    sec: 289
    nanosec: 866999999
  frame_id: base_link
pose:
  pose:
    position:
      x: -318.25706749256324
      y: -1852.0756881855482
      z: 0.0
    orientation:
      x: 0.0
      y: 0.0
      z: 0.7095528549157206
      w: -0.7046522164024962
  covariance:
  - 0.001
  - 0.0
  - 0.0
  - 0.0
  - 0.0
  - 0.0
  - 0.0
  - 0.001
  - 0.0
  - 0.0
  - 0.0
  - 0.0
  - 0.0
  - 0.0
  - 0.001
  - 0.0
  - 0.0
  - 0.0
  - 0.0
  - 0.0
  - 0.0
  - 0.0001
  - 0.0
  - 0.0
  - 0.0
  - 0.0
  - 0.0
  - 0.0
  - 0.0001
  - 0.0
  - 0.0
  - 0.0
  - 0.0
  - 0.0
  - 0.0
  - 0.0001
---
header:
  stamp:
    sec: 289
    nanosec: 867999999
  frame_id: base_link
pose:
  pose:
    position:
      x: -318.25706749256324
      y: -1852.0756881855482
      z: 0.0
    orientation:
      x: 0.0
      y: 0.0
      z: 0.7095528549157206
      w: -0.7046522164024962
  covariance:
  - 0.001
  - 0.0
  - 0.0
  - 0.0
  - 0.0
  - 0.0
  - 0.0
  - 0.001
  - 0.0
  - 0.0
  - 0.0
  - 0.0
  - 0.0
  - 0.0
  - 0.001
  - 0.0
  - 0.0
  - 0.0
  - 0.0
  - 0.0
  - 0.0
  - 0.0001
  - 0.0
  - 0.0
  - 0.0
  - 0.0
  - 0.0
  - 0.0
  - 0.0001
  - 0.0
  - 0.0
  - 0.0
  - 0.0
  - 0.0
  - 0.0
  - 0.0001
---
header:
  stamp:
    sec: 289
    nanosec: 867999999
  frame_id: base_link
pose:
  pose:
    position:
      x: -318.2694772134525
      y: -1852.0455839831802
      z: 0.0
    orientation:
      x: 0.0
      y: 0.0
      z: -0.7011310864486
      w: 0.7130323973112342
  covariance:
  - 0.001
  - 0.0
  - 0.0
  - 0.0
  - 0.0
  - 0.0
  - 0.0
  - 0.001
  - 0.0
  - 0.0
  - 0.0
  - 0.0
  - 0.0
  - 0.0
  - 0.001
  - 0.0
  - 0.0
  - 0.0
  - 0.0
  - 0.0
  - 0.0
  - 0.0001
  - 0.0
  - 0.0
  - 0.0
  - 0.0
  - 0.0
  - 0.0
  - 0.0001
  - 0.0
  - 0.0
  - 0.0
  - 0.0
  - 0.0
  - 0.0
  - 0.0001
---
header:
  stamp:
    sec: 289
    nanosec: 868999999
  frame_id: base_link
pose:
  pose:
    position:
      x: -318.2694772134525
      y: -1852.0455839831802
      z: 0.0
    orientation:
      x: 0.0
      y: 0.0
      z: -0.7011310864486
      w: 0.7130323973112342
  covariance:
  - 0.001
  - 0.0
  - 0.0
  - 0.0
  - 0.0
  - 0.0
  - 0.0
  - 0.001
  - 0.0
  - 0.0
  - 0.0
  - 0.0
  - 0.0
  - 0.0
  - 0.001
  - 0.0
  - 0.0
  - 0.0
  - 0.0
  - 0.0
  - 0.0
  - 0.0001
  - 0.0
  - 0.0
  - 0.0
  - 0.0
  - 0.0
  - 0.0
  - 0.0001
  - 0.0
  - 0.0
  - 0.0
  - 0.0
  - 0.0
  - 0.0
  - 0.0001
---
